[
  {
    "id": 1,
    "name": "Tree Plantation Drive - Lucknow",
    "description": "Plant native trees and restore green cover in urban areas.",
    "category": "environment",
    "city": "Lucknow",
    "lat": 26.8619,
    "lng": 80.9236
  },
  {
    "id": 2,
    "name": "Beach Cleanup Initiative - Jaipur",
    "description": "Remove plastic waste from beaches and coastal areas.",
    "category": "environment",
    "city": "Jaipur",
    "lat": 26.9176,
    "lng": 75.8283
  },
  {
    "id": 3,
    "name": "Organic Farming Workshop - Hyderabad",
    "description": "Learn sustainable farming techniques and promote organic produce.",
    "category": "environment",
    "city": "Hyderabad",
    "lat": 17.3963,
    "lng": 78.4956
  },
  {
    "id": 4,
    "name": "Solar Energy Awareness - Pune",
    "description": "Educate communities about renewable energy and solar power.",
    "category": "environment",
    "city": "Pune",
    "lat": 18.5678,
    "lng": 73.8652
  },
  {
    "id": 5,
    "name": "Water Conservation Project - Delhi",
    "description": "Implement rainwater harvesting and reduce water wastage.",
    "category": "environment",
    "city": "Delhi",
    "lat": 28.6905,
    "lng": 77.1389
  },
  {
    "id": 6,
    "name": "Waste Segregation Campaign - Lucknow",
    "description": "Teach households proper waste management and recycling.",
    "category": "environment",
    "city": "Lucknow",
    "lat": 26.8378,
    "lng": 80.9445
  },
  {
    "id": 7,
    "name": "Urban Gardening Program - Kolkata",
    "description": "Create rooftop and vertical gardens in city spaces.",
    "category": "environment",
    "city": "Kolkata",
    "lat": 22.5947,
    "lng": 88.3502
  },
  {
    "id": 8,
    "name": "River Cleaning Drive - Delhi",
    "description": "Clean polluted rivers and restore aquatic ecosystems.",
    "category": "environment",
    "city": "Delhi",
    "lat": 28.7042,
    "lng": 77.1061
  },
  {
    "id": 9,
    "name": "Composting Workshop - Mumbai",
    "description": "Convert kitchen waste into nutrient-rich compost.",
    "category": "environment",
    "city": "Mumbai",
    "lat": 19.1167,
    "lng": 72.8654
  },
  {
    "id": 10,
    "name": "Plastic-Free Streets - Pune",
    "description": "Eliminate single-use plastics from local communities.",
    "category": "environment",
    "city": "Pune",
    "lat": 18.5406,
    "lng": 73.8177
  },
  {
    "id": 11,
    "name": "Tree Plantation Drive - Lucknow",
    "description": "Plant native trees and restore green cover in urban areas.",
    "category": "environment",
    "city": "Lucknow",
    "lat": 26.806,
    "lng": 80.9487
  },
  {
    "id": 12,
    "name": "Beach Cleanup Initiative - Jaipur",
    "description": "Remove plastic waste from beaches and coastal areas.",
    "category": "environment",
    "city": "Jaipur",
    "lat": 26.8717,
    "lng": 75.7578
  },
  {
    "id": 13,
    "name": "Organic Farming Workshop - Lucknow",
    "description": "Learn sustainable farming techniques and promote organic produce.",
    "category": "environment",
    "city": "Lucknow",
    "lat": 26.8523,
    "lng": 80.8964
  },
  {
    "id": 14,
    "name": "Solar Energy Awareness - Hyderabad",
    "description": "Educate communities about renewable energy and solar power.",
    "category": "environment",
    "city": "Hyderabad",
    "lat": 17.355,
    "lng": 78.4913
  },
  {
    "id": 15,
    "name": "Water Conservation Project - Surat",
    "description": "Implement rainwater harvesting and reduce water wastage.",
    "category": "environment",
    "city": "Surat",
    "lat": 21.2155,
    "lng": 72.8305
  },
  {
    "id": 16,
    "name": "Waste Segregation Campaign - Jaipur",
    "description": "Teach households proper waste management and recycling.",
    "category": "environment",
    "city": "Jaipur",
    "lat": 26.8694,
    "lng": 75.8058
  },
  {
    "id": 17,
    "name": "Urban Gardening Program - Mumbai",
    "description": "Create rooftop and vertical gardens in city spaces.",
    "category": "environment",
    "city": "Mumbai",
    "lat": 19.047,
    "lng": 72.8404
  },
  {
    "id": 18,
    "name": "River Cleaning Drive - Pune",
    "description": "Clean polluted rivers and restore aquatic ecosystems.",
    "category": "environment",
    "city": "Pune",
    "lat": 18.4762,
    "lng": 73.8299
  },
  {
    "id": 19,
    "name": "Composting Workshop - Kolkata",
    "description": "Convert kitchen waste into nutrient-rich compost.",
    "category": "environment",
    "city": "Kolkata",
    "lat": 22.5982,
    "lng": 88.3573
  },
  {
    "id": 20,
    "name": "Plastic-Free Streets - Delhi",
    "description": "Eliminate single-use plastics from local communities.",
    "category": "environment",
    "city": "Delhi",
    "lat": 28.6833,
    "lng": 77.1349
  },
  {
    "id": 21,
    "name": "Free Health Checkup Camp - Surat",
    "description": "Provide basic health screenings for underprivileged communities.",
    "category": "health",
    "city": "Surat",
    "lat": 21.1546,
    "lng": 72.7878
  },
  {
    "id": 22,
    "name": "Blood Donation Drive - Lucknow",
    "description": "Organize blood donation camps to save lives.",
    "category": "health",
    "city": "Lucknow",
    "lat": 26.8902,
    "lng": 80.9308
  },
  {
    "id": 23,
    "name": "Mental Health Awareness - Surat",
    "description": "Reduce stigma and provide counseling support.",
    "category": "health",
    "city": "Surat",
    "lat": 21.1313,
    "lng": 72.7875
  },
  {
    "id": 24,
    "name": "Yoga & Wellness Sessions - Jaipur",
    "description": "Offer free yoga classes for physical and mental wellbeing.",
    "category": "health",
    "city": "Jaipur",
    "lat": 26.9535,
    "lng": 75.8098
  },
  {
    "id": 25,
    "name": "COVID Vaccination Support - Delhi",
    "description": "Help elderly and disabled get vaccinated.",
    "category": "health",
    "city": "Delhi",
    "lat": 28.721,
    "lng": 77.112
  },
  {
    "id": 26,
    "name": "Nutrition Education Program - Jaipur",
    "description": "Teach balanced diets and healthy eating habits.",
    "category": "health",
    "city": "Jaipur",
    "lat": 26.9138,
    "lng": 75.7918
  },
  {
    "id": 27,
    "name": "Eye Screening Camp - Kolkata",
    "description": "Provide free eye checkups and distribute glasses.",
    "category": "health",
    "city": "Kolkata",
    "lat": 22.5894,
    "lng": 88.326
  },
  {
    "id": 28,
    "name": "First Aid Training - Delhi",
    "description": "Teach life-saving emergency response skills.",
    "category": "health",
    "city": "Delhi",
    "lat": 28.7034,
    "lng": 77.0598
  },
  {
    "id": 29,
    "name": "Dental Care Initiative - Hyderabad",
    "description": "Offer free dental checkups and oral hygiene education.",
    "category": "health",
    "city": "Hyderabad",
    "lat": 17.4041,
    "lng": 78.4517
  },
  {
    "id": 30,
    "name": "Fitness for All - Hyderabad",
    "description": "Organize community fitness activities and sports.",
    "category": "health",
    "city": "Hyderabad",
    "lat": 17.3705,
    "lng": 78.4919
  },
  {
    "id": 31,
    "name": "Free Health Checkup Camp - Delhi",
    "description": "Provide basic health screenings for underprivileged communities.",
    "category": "health",
    "city": "Delhi",
    "lat": 28.7478,
    "lng": 77.1267
  },
  {
    "id": 32,
    "name": "Blood Donation Drive - Bangalore",
    "description": "Organize blood donation camps to save lives.",
    "category": "health",
    "city": "Bangalore",
    "lat": 13.0076,
    "lng": 77.5779
  },
  {
    "id": 33,
    "name": "Mental Health Awareness - Surat",
    "description": "Reduce stigma and provide counseling support.",
    "category": "health",
    "city": "Surat",
    "lat": 21.1531,
    "lng": 72.8297
  },
  {
    "id": 34,
    "name": "Yoga & Wellness Sessions - Lucknow",
    "description": "Offer free yoga classes for physical and mental wellbeing.",
    "category": "health",
    "city": "Lucknow",
    "lat": 26.8592,
    "lng": 80.9278
  },
  {
    "id": 35,
    "name": "COVID Vaccination Support - Lucknow",
    "description": "Help elderly and disabled get vaccinated.",
    "category": "health",
    "city": "Lucknow",
    "lat": 26.8562,
    "lng": 80.9895
  },
  {
    "id": 36,
    "name": "Nutrition Education Program - Surat",
    "description": "Teach balanced diets and healthy eating habits.",
    "category": "health",
    "city": "Surat",
    "lat": 21.1918,
    "lng": 72.8357
  },
  {
    "id": 37,
    "name": "Eye Screening Camp - Mumbai",
    "description": "Provide free eye checkups and distribute glasses.",
    "category": "health",
    "city": "Mumbai",
    "lat": 19.0606,
    "lng": 72.8417
  },
  {
    "id": 38,
    "name": "First Aid Training - Kolkata",
    "description": "Teach life-saving emergency response skills.",
    "category": "health",
    "city": "Kolkata",
    "lat": 22.6019,
    "lng": 88.369
  },
  {
    "id": 39,
    "name": "Dental Care Initiative - Bangalore",
    "description": "Offer free dental checkups and oral hygiene education.",
    "category": "health",
    "city": "Bangalore",
    "lat": 13.0197,
    "lng": 77.574
  },
  {
    "id": 40,
    "name": "Fitness for All - Delhi",
    "description": "Organize community fitness activities and sports.",
    "category": "health",
    "city": "Delhi",
    "lat": 28.6955,
    "lng": 77.0837
  },
  {
    "id": 41,
    "name": "Evening Classes for Kids - Hyderabad",
    "description": "Teach underprivileged children after school hours.",
    "category": "education",
    "city": "Hyderabad",
    "lat": 17.362,
    "lng": 78.4813
  },
  {
    "id": 42,
    "name": "Digital Literacy Program - Kolkata",
    "description": "Provide computer skills training to rural communities.",
    "category": "education",
    "city": "Kolkata",
    "lat": 22.5227,
    "lng": 88.3973
  },
  {
    "id": 43,
    "name": "Book Donation Campaign - Kolkata",
    "description": "Collect and distribute books to libraries in need.",
    "category": "education",
    "city": "Kolkata",
    "lat": 22.528,
    "lng": 88.3729
  },
  {
    "id": 44,
    "name": "Career Counseling Sessions - Hyderabad",
    "description": "Guide students in making informed career choices.",
    "category": "education",
    "city": "Hyderabad",
    "lat": 17.3815,
    "lng": 78.4842
  },
  {
    "id": 45,
    "name": "English Speaking Classes - Hyderabad",
    "description": "Improve communication skills for job seekers.",
    "category": "education",
    "city": "Hyderabad",
    "lat": 17.407,
    "lng": 78.5286
  },
  {
    "id": 46,
    "name": "Math & Science Tutoring - Jaipur",
    "description": "Help students excel in STEM subjects.",
    "category": "education",
    "city": "Jaipur",
    "lat": 26.9598,
    "lng": 75.7951
  },
  {
    "id": 47,
    "name": "Library Setup Project - Chennai",
    "description": "Build community libraries in underserved areas.",
    "category": "education",
    "city": "Chennai",
    "lat": 13.1266,
    "lng": 80.2747
  },
  {
    "id": 48,
    "name": "Scholarship Support Drive - Delhi",
    "description": "Raise funds for meritorious but poor students.",
    "category": "education",
    "city": "Delhi",
    "lat": 28.7176,
    "lng": 77.1248
  },
  {
    "id": 49,
    "name": "Vocational Training Center - Jaipur",
    "description": "Teach practical skills like tailoring and carpentry.",
    "category": "education",
    "city": "Jaipur",
    "lat": 26.9477,
    "lng": 75.8151
  },
  {
    "id": 50,
    "name": "Adult Literacy Program - Mumbai",
    "description": "Teach reading and writing to adults who missed formal education.",
    "category": "education",
    "city": "Mumbai",
    "lat": 19.124,
    "lng": 72.9169
  },
  {
    "id": 51,
    "name": "Evening Classes for Kids - Hyderabad",
    "description": "Teach underprivileged children after school hours.",
    "category": "education",
    "city": "Hyderabad",
    "lat": 17.4276,
    "lng": 78.4594
  },
  {
    "id": 52,
    "name": "Digital Literacy Program - Jaipur",
    "description": "Provide computer skills training to rural communities.",
    "category": "education",
    "city": "Jaipur",
    "lat": 26.934,
    "lng": 75.8035
  },
  {
    "id": 53,
    "name": "Book Donation Campaign - Jaipur",
    "description": "Collect and distribute books to libraries in need.",
    "category": "education",
    "city": "Jaipur",
    "lat": 26.95,
    "lng": 75.7633
  },
  {
    "id": 54,
    "name": "Career Counseling Sessions - Delhi",
    "description": "Guide students in making informed career choices.",
    "category": "education",
    "city": "Delhi",
    "lat": 28.7107,
    "lng": 77.1512
  },
  {
    "id": 55,
    "name": "English Speaking Classes - Surat",
    "description": "Improve communication skills for job seekers.",
    "category": "education",
    "city": "Surat",
    "lat": 21.1958,
    "lng": 72.7983
  },
  {
    "id": 56,
    "name": "Math & Science Tutoring - Surat",
    "description": "Help students excel in STEM subjects.",
    "category": "education",
    "city": "Surat",
    "lat": 21.1947,
    "lng": 72.842
  },
  {
    "id": 57,
    "name": "Library Setup Project - Delhi",
    "description": "Build community libraries in underserved areas.",
    "category": "education",
    "city": "Delhi",
    "lat": 28.7273,
    "lng": 77.0544
  },
  {
    "id": 58,
    "name": "Scholarship Support Drive - Delhi",
    "description": "Raise funds for meritorious but poor students.",
    "category": "education",
    "city": "Delhi",
    "lat": 28.7013,
    "lng": 77.0861
  },
  {
    "id": 59,
    "name": "Vocational Training Center - Kolkata",
    "description": "Teach practical skills like tailoring and carpentry.",
    "category": "education",
    "city": "Kolkata",
    "lat": 22.5766,
    "lng": 88.3902
  },
  {
    "id": 60,
    "name": "Adult Literacy Program - Mumbai",
    "description": "Teach reading and writing to adults who missed formal education.",
    "category": "education",
    "city": "Mumbai",
    "lat": 19.1034,
    "lng": 72.8316
  },
  {
    "id": 61,
    "name": "Stray Dog Feeding Program - Chennai",
    "description": "Provide regular meals to street dogs in the locality.",
    "category": "animals",
    "city": "Chennai",
    "lat": 13.1139,
    "lng": 80.3129
  },
  {
    "id": 62,
    "name": "Animal Shelter Support - Mumbai",
    "description": "Help maintain shelters for abandoned pets.",
    "category": "animals",
    "city": "Mumbai",
    "lat": 19.1254,
    "lng": 72.8795
  },
  {
    "id": 63,
    "name": "Bird Conservation Project - Pune",
    "description": "Protect local bird habitats and build nesting boxes.",
    "category": "animals",
    "city": "Pune",
    "lat": 18.5537,
    "lng": 73.8596
  },
  {
    "id": 64,
    "name": "Cow Rescue Initiative - Mumbai",
    "description": "Save and rehabilitate injured or abandoned cattle.",
    "category": "animals",
    "city": "Mumbai",
    "lat": 19.1226,
    "lng": 72.8481
  },
  {
    "id": 65,
    "name": "Pet Adoption Drive - Mumbai",
    "description": "Find loving homes for rescued animals.",
    "category": "animals",
    "city": "Mumbai",
    "lat": 19.043,
    "lng": 72.849
  },
  {
    "id": 66,
    "name": "Wildlife Awareness Campaign - Surat",
    "description": "Educate about protecting endangered species.",
    "category": "animals",
    "city": "Surat",
    "lat": 21.1317,
    "lng": 72.8747
  },
  {
    "id": 67,
    "name": "Veterinary Camp - Chennai",
    "description": "Provide free medical care for community animals.",
    "category": "animals",
    "city": "Chennai",
    "lat": 13.0427,
    "lng": 80.306
  },
  {
    "id": 68,
    "name": "Cat Sterilization Program - Surat",
    "description": "Control stray cat population humanely.",
    "category": "animals",
    "city": "Surat",
    "lat": 21.1487,
    "lng": 72.8594
  },
  {
    "id": 69,
    "name": "Elephant Corridor Protection - Pune",
    "description": "Preserve natural migration routes for elephants.",
    "category": "animals",
    "city": "Pune",
    "lat": 18.484,
    "lng": 73.8797
  },
  {
    "id": 70,
    "name": "Aquarium & Marine Life Care - Hyderabad",
    "description": "Maintain ethical aquatic animal habitats.",
    "category": "animals",
    "city": "Hyderabad",
    "lat": 17.3665,
    "lng": 78.503
  },
  {
    "id": 71,
    "name": "Stray Dog Feeding Program - Delhi",
    "description": "Provide regular meals to street dogs in the locality.",
    "category": "animals",
    "city": "Delhi",
    "lat": 28.7024,
    "lng": 77.0891
  },
  {
    "id": 72,
    "name": "Animal Shelter Support - Chennai",
    "description": "Help maintain shelters for abandoned pets.",
    "category": "animals",
    "city": "Chennai",
    "lat": 13.1287,
    "lng": 80.2467
  },
  {
    "id": 73,
    "name": "Bird Conservation Project - Chennai",
    "description": "Protect local bird habitats and build nesting boxes.",
    "category": "animals",
    "city": "Chennai",
    "lat": 13.0348,
    "lng": 80.3095
  },
  {
    "id": 74,
    "name": "Cow Rescue Initiative - Chennai",
    "description": "Save and rehabilitate injured or abandoned cattle.",
    "category": "animals",
    "city": "Chennai",
    "lat": 13.0361,
    "lng": 80.2217
  },
  {
    "id": 75,
    "name": "Pet Adoption Drive - Chennai",
    "description": "Find loving homes for rescued animals.",
    "category": "animals",
    "city": "Chennai",
    "lat": 13.0821,
    "lng": 80.3096
  },
  {
    "id": 76,
    "name": "Wildlife Awareness Campaign - Chennai",
    "description": "Educate about protecting endangered species.",
    "category": "animals",
    "city": "Chennai",
    "lat": 13.1305,
    "lng": 80.2367
  },
  {
    "id": 77,
    "name": "Veterinary Camp - Chennai",
    "description": "Provide free medical care for community animals.",
    "category": "animals",
    "city": "Chennai",
    "lat": 13.1132,
    "lng": 80.2685
  },
  {
    "id": 78,
    "name": "Cat Sterilization Program - Delhi",
    "description": "Control stray cat population humanely.",
    "category": "animals",
    "city": "Delhi",
    "lat": 28.6543,
    "lng": 77.1244
  },
  {
    "id": 79,
    "name": "Elephant Corridor Protection - Pune",
    "description": "Preserve natural migration routes for elephants.",
    "category": "animals",
    "city": "Pune",
    "lat": 18.565,
    "lng": 73.8162
  },
  {
    "id": 80,
    "name": "Aquarium & Marine Life Care - Surat",
    "description": "Maintain ethical aquatic animal habitats.",
    "category": "animals",
    "city": "Surat",
    "lat": 21.2011,
    "lng": 72.8334
  },
  {
    "id": 81,
    "name": "Cricket Coaching for Kids - Bangalore",
    "description": "Train underprivileged children in cricket fundamentals.",
    "category": "sports",
    "city": "Bangalore",
    "lat": 12.9308,
    "lng": 77.5645
  },
  {
    "id": 82,
    "name": "Marathon for a Cause - Mumbai",
    "description": "Organize charity runs to raise awareness and funds.",
    "category": "sports",
    "city": "Mumbai",
    "lat": 19.0768,
    "lng": 72.9065
  },
  {
    "id": 83,
    "name": "Football Academy - Kolkata",
    "description": "Provide professional football training to aspiring players.",
    "category": "sports",
    "city": "Kolkata",
    "lat": 22.5592,
    "lng": 88.3159
  },
  {
    "id": 84,
    "name": "Badminton Training Camp - Pune",
    "description": "Teach badminton skills and promote fitness.",
    "category": "sports",
    "city": "Pune",
    "lat": 18.5554,
    "lng": 73.8272
  },
  {
    "id": 85,
    "name": "Sports Equipment Donation - Pune",
    "description": "Collect and distribute sports gear to schools.",
    "category": "sports",
    "city": "Pune",
    "lat": 18.5316,
    "lng": 73.8354
  },
  {
    "id": 86,
    "name": "Community Cycling Event - Chennai",
    "description": "Promote eco-friendly transport through group rides.",
    "category": "sports",
    "city": "Chennai",
    "lat": 13.063,
    "lng": 80.3058
  },
  {
    "id": 87,
    "name": "Basketball League - Lucknow",
    "description": "Organize local tournaments for youth engagement.",
    "category": "sports",
    "city": "Lucknow",
    "lat": 26.8386,
    "lng": 80.8988
  },
  {
    "id": 88,
    "name": "Swimming Lessons - Delhi",
    "description": "Teach water safety and swimming to children.",
    "category": "sports",
    "city": "Delhi",
    "lat": 28.7008,
    "lng": 77.1124
  },
  {
    "id": 89,
    "name": "Yoga & Athletics - Surat",
    "description": "Combine traditional yoga with modern athletic training.",
    "category": "sports",
    "city": "Surat",
    "lat": 21.1792,
    "lng": 72.8704
  },
  {
    "id": 90,
    "name": "Chess Championship - Delhi",
    "description": "Conduct mental sports competitions for all ages.",
    "category": "sports",
    "city": "Delhi",
    "lat": 28.7366,
    "lng": 77.0664
  },
  {
    "id": 91,
    "name": "Cricket Coaching for Kids - Hyderabad",
    "description": "Train underprivileged children in cricket fundamentals.",
    "category": "sports",
    "city": "Hyderabad",
    "lat": 17.3976,
    "lng": 78.4537
  },
  {
    "id": 92,
    "name": "Marathon for a Cause - Pune",
    "description": "Organize charity runs to raise awareness and funds.",
    "category": "sports",
    "city": "Pune",
    "lat": 18.4948,
    "lng": 73.8227
  },
  {
    "id": 93,
    "name": "Football Academy - Mumbai",
    "description": "Provide professional football training to aspiring players.",
    "category": "sports",
    "city": "Mumbai",
    "lat": 19.1189,
    "lng": 72.8866
  },
  {
    "id": 94,
    "name": "Badminton Training Camp - Chennai",
    "description": "Teach badminton skills and promote fitness.",
    "category": "sports",
    "city": "Chennai",
    "lat": 13.0453,
    "lng": 80.2911
  },
  {
    "id": 95,
    "name": "Sports Equipment Donation - Bangalore",
    "description": "Collect and distribute sports gear to schools.",
    "category": "sports",
    "city": "Bangalore",
    "lat": 13.0141,
    "lng": 77.5674
  },
  {
    "id": 96,
    "name": "Community Cycling Event - Hyderabad",
    "description": "Promote eco-friendly transport through group rides.",
    "category": "sports",
    "city": "Hyderabad",
    "lat": 17.4324,
    "lng": 78.5358
  },
  {
    "id": 97,
    "name": "Basketball League - Hyderabad",
    "description": "Organize local tournaments for youth engagement.",
    "category": "sports",
    "city": "Hyderabad",
    "lat": 17.4178,
    "lng": 78.5268
  },
  {
    "id": 98,
    "name": "Swimming Lessons - Surat",
    "description": "Teach water safety and swimming to children.",
    "category": "sports",
    "city": "Surat",
    "lat": 21.1544,
    "lng": 72.8524
  },
  {
    "id": 99,
    "name": "Yoga & Athletics - Hyderabad",
    "description": "Combine traditional yoga with modern athletic training.",
    "category": "sports",
    "city": "Hyderabad",
    "lat": 17.4262,
    "lng": 78.536
  },
  {
    "id": 100,
    "name": "Chess Championship - Lucknow",
    "description": "Conduct mental sports competitions for all ages.",
    "category": "sports",
    "city": "Lucknow",
    "lat": 26.8362,
    "lng": 80.9329
  },
  {
    "id": 101,
    "name": "Self-Defense Training - Jaipur",
    "description": "Teach martial arts and safety techniques to women.",
    "category": "women empowerment",
    "city": "Jaipur",
    "lat": 26.8906,
    "lng": 75.768
  },
  {
    "id": 102,
    "name": "Entrepreneurship Workshop - Pune",
    "description": "Help women start their own businesses.",
    "category": "women empowerment",
    "city": "Pune",
    "lat": 18.5333,
    "lng": 73.8751
  },
  {
    "id": 103,
    "name": "Skill Development Classes - Kolkata",
    "description": "Provide training in stitching, handicrafts, and more.",
    "category": "women empowerment",
    "city": "Kolkata",
    "lat": 22.5981,
    "lng": 88.3198
  },
  {
    "id": 104,
    "name": "Legal Rights Awareness - Lucknow",
    "description": "Educate women about their legal protections.",
    "category": "women empowerment",
    "city": "Lucknow",
    "lat": 26.8277,
    "lng": 80.9234
  },
  {
    "id": 105,
    "name": "Women's Health Camp - Bangalore",
    "description": "Offer specialized medical screenings for women.",
    "category": "women empowerment",
    "city": "Bangalore",
    "lat": 12.9839,
    "lng": 77.6026
  },
  {
    "id": 106,
    "name": "Menstrual Hygiene Drive - Pune",
    "description": "Distribute sanitary products and educate about menstrual health.",
    "category": "women empowerment",
    "city": "Pune",
    "lat": 18.5149,
    "lng": 73.8308
  },
  {
    "id": 107,
    "name": "Financial Literacy Program - Hyderabad",
    "description": "Teach budgeting, savings, and investment basics.",
    "category": "women empowerment",
    "city": "Hyderabad",
    "lat": 17.4136,
    "lng": 78.4579
  },
  {
    "id": 108,
    "name": "Leadership Training - Bangalore",
    "description": "Build confidence and leadership skills in young women.",
    "category": "women empowerment",
    "city": "Bangalore",
    "lat": 12.9958,
    "lng": 77.5522
  },
  {
    "id": 109,
    "name": "Domestic Violence Support - Hyderabad",
    "description": "Provide counseling and legal aid to survivors.",
    "category": "women empowerment",
    "city": "Hyderabad",
    "lat": 17.3709,
    "lng": 78.5296
  },
  {
    "id": 110,
    "name": "Mother & Child Care - Lucknow",
    "description": "Support maternal health and early childhood development.",
    "category": "women empowerment",
    "city": "Lucknow",
    "lat": 26.879,
    "lng": 80.9005
  },
  {
    "id": 111,
    "name": "Self-Defense Training - Jaipur",
    "description": "Teach martial arts and safety techniques to women.",
    "category": "women empowerment",
    "city": "Jaipur",
    "lat": 26.9341,
    "lng": 75.7984
  },
  {
    "id": 112,
    "name": "Entrepreneurship Workshop - Surat",
    "description": "Help women start their own businesses.",
    "category": "women empowerment",
    "city": "Surat",
    "lat": 21.149,
    "lng": 72.8607
  },
  {
    "id": 113,
    "name": "Skill Development Classes - Bangalore",
    "description": "Provide training in stitching, handicrafts, and more.",
    "category": "women empowerment",
    "city": "Bangalore",
    "lat": 12.9565,
    "lng": 77.5517
  },
  {
    "id": 114,
    "name": "Legal Rights Awareness - Delhi",
    "description": "Educate women about their legal protections.",
    "category": "women empowerment",
    "city": "Delhi",
    "lat": 28.7013,
    "lng": 77.1187
  },
  {
    "id": 115,
    "name": "Women's Health Camp - Surat",
    "description": "Offer specialized medical screenings for women.",
    "category": "women empowerment",
    "city": "Surat",
    "lat": 21.1347,
    "lng": 72.8388
  },
  {
    "id": 116,
    "name": "Menstrual Hygiene Drive - Kolkata",
    "description": "Distribute sanitary products and educate about menstrual health.",
    "category": "women empowerment",
    "city": "Kolkata",
    "lat": 22.5856,
    "lng": 88.4123
  },
  {
    "id": 117,
    "name": "Financial Literacy Program - Jaipur",
    "description": "Teach budgeting, savings, and investment basics.",
    "category": "women empowerment",
    "city": "Jaipur",
    "lat": 26.9402,
    "lng": 75.7731
  },
  {
    "id": 118,
    "name": "Leadership Training - Mumbai",
    "description": "Build confidence and leadership skills in young women.",
    "category": "women empowerment",
    "city": "Mumbai",
    "lat": 19.0344,
    "lng": 72.9185
  },
  {
    "id": 119,
    "name": "Domestic Violence Support - Mumbai",
    "description": "Provide counseling and legal aid to survivors.",
    "category": "women empowerment",
    "city": "Mumbai",
    "lat": 19.0719,
    "lng": 72.8684
  },
  {
    "id": 120,
    "name": "Mother & Child Care - Hyderabad",
    "description": "Support maternal health and early childhood development.",
    "category": "women empowerment",
    "city": "Hyderabad",
    "lat": 17.3847,
    "lng": 78.5203
  },
  {
    "id": 121,
    "name": "Coding Classes for Kids - Jaipur",
    "description": "Introduce children to programming and app development.",
    "category": "technology",
    "city": "Jaipur",
    "lat": 26.8768,
    "lng": 75.7612
  },
  {
    "id": 122,
    "name": "AI & Machine Learning Workshop - Delhi",
    "description": "Teach basics of artificial intelligence.",
    "category": "technology",
    "city": "Delhi",
    "lat": 28.7336,
    "lng": 77.118
  },
  {
    "id": 123,
    "name": "Web Development Bootcamp - Bangalore",
    "description": "Train youth in building websites and web apps.",
    "category": "technology",
    "city": "Bangalore",
    "lat": 12.9544,
    "lng": 77.5881
  },
  {
    "id": 124,
    "name": "Robotics Club - Surat",
    "description": "Engage students in hands-on robotics projects.",
    "category": "technology",
    "city": "Surat",
    "lat": 21.1671,
    "lng": 72.7946
  },
  {
    "id": 125,
    "name": "Cybersecurity Awareness - Mumbai",
    "description": "Educate about online safety and data protection.",
    "category": "technology",
    "city": "Mumbai",
    "lat": 19.0861,
    "lng": 72.8782
  },
  {
    "id": 126,
    "name": "Mobile App Development - Delhi",
    "description": "Create Android/iOS apps for social causes.",
    "category": "technology",
    "city": "Delhi",
    "lat": 28.727,
    "lng": 77.0742
  },
  {
    "id": 127,
    "name": "Open Source Contribution - Kolkata",
    "description": "Encourage participation in global tech communities.",
    "category": "technology",
    "city": "Kolkata",
    "lat": 22.6045,
    "lng": 88.3859
  },
  {
    "id": 128,
    "name": "Digital Marketing Skills - Hyderabad",
    "description": "Teach SEO, social media, and content marketing.",
    "category": "technology",
    "city": "Hyderabad",
    "lat": 17.3719,
    "lng": 78.4497
  },
  {
    "id": 129,
    "name": "Tech for Seniors - Delhi",
    "description": "Help elderly learn smartphones and internet usage.",
    "category": "technology",
    "city": "Delhi",
    "lat": 28.6648,
    "lng": 77.0885
  },
  {
    "id": 130,
    "name": "IoT Innovation Lab - Jaipur",
    "description": "Build smart devices for solving local problems.",
    "category": "technology",
    "city": "Jaipur",
    "lat": 26.9398,
    "lng": 75.77
  },
  {
    "id": 131,
    "name": "Coding Classes for Kids - Pune",
    "description": "Introduce children to programming and app development.",
    "category": "technology",
    "city": "Pune",
    "lat": 18.5273,
    "lng": 73.8724
  },
  {
    "id": 132,
    "name": "AI & Machine Learning Workshop - Hyderabad",
    "description": "Teach basics of artificial intelligence.",
    "category": "technology",
    "city": "Hyderabad",
    "lat": 17.3967,
    "lng": 78.4528
  },
  {
    "id": 133,
    "name": "Web Development Bootcamp - Mumbai",
    "description": "Train youth in building websites and web apps.",
    "category": "technology",
    "city": "Mumbai",
    "lat": 19.0369,
    "lng": 72.9203
  },
  {
    "id": 134,
    "name": "Robotics Club - Mumbai",
    "description": "Engage students in hands-on robotics projects.",
    "category": "technology",
    "city": "Mumbai",
    "lat": 19.0308,
    "lng": 72.8776
  },
  {
    "id": 135,
    "name": "Cybersecurity Awareness - Jaipur",
    "description": "Educate about online safety and data protection.",
    "category": "technology",
    "city": "Jaipur",
    "lat": 26.9311,
    "lng": 75.8255
  },
  {
    "id": 136,
    "name": "Mobile App Development - Pune",
    "description": "Create Android/iOS apps for social causes.",
    "category": "technology",
    "city": "Pune",
    "lat": 18.569,
    "lng": 73.8931
  },
  {
    "id": 137,
    "name": "Open Source Contribution - Pune",
    "description": "Encourage participation in global tech communities.",
    "category": "technology",
    "city": "Pune",
    "lat": 18.5595,
    "lng": 73.8645
  },
  {
    "id": 138,
    "name": "Digital Marketing Skills - Mumbai",
    "description": "Teach SEO, social media, and content marketing.",
    "category": "technology",
    "city": "Mumbai",
    "lat": 19.0275,
    "lng": 72.8595
  },
  {
    "id": 139,
    "name": "Tech for Seniors - Chennai",
    "description": "Help elderly learn smartphones and internet usage.",
    "category": "technology",
    "city": "Chennai",
    "lat": 13.0705,
    "lng": 80.2409
  },
  {
    "id": 140,
    "name": "IoT Innovation Lab - Bangalore",
    "description": "Build smart devices for solving local problems.",
    "category": "technology",
    "city": "Bangalore",
    "lat": 12.9716,
    "lng": 77.6296
  },
  {
    "id": 141,
    "name": "Community Kitchen Service - Mumbai",
    "description": "Prepare and serve meals to the homeless.",
    "category": "volunteering",
    "city": "Mumbai",
    "lat": 19.0993,
    "lng": 72.8908
  },
  {
    "id": 142,
    "name": "Old Age Home Visits - Pune",
    "description": "Spend time with elderly residents and provide companionship.",
    "category": "volunteering",
    "city": "Pune",
    "lat": 18.5474,
    "lng": 73.8169
  },
  {
    "id": 143,
    "name": "Disaster Relief Support - Delhi",
    "description": "Assist in rescue and rehabilitation during emergencies.",
    "category": "volunteering",
    "city": "Delhi",
    "lat": 28.6976,
    "lng": 77.1512
  },
  {
    "id": 144,
    "name": "Orphanage Support Program - Delhi",
    "description": "Organize activities and donate supplies to orphanages.",
    "category": "volunteering",
    "city": "Delhi",
    "lat": 28.7165,
    "lng": 77.1017
  },
  {
    "id": 145,
    "name": "Hospital Volunteer Program - Surat",
    "description": "Help patients and support hospital staff.",
    "category": "volunteering",
    "city": "Surat",
    "lat": 21.1783,
    "lng": 72.841
  },
  {
    "id": 146,
    "name": "Slum Beautification - Surat",
    "description": "Paint murals and improve living conditions in slums.",
    "category": "volunteering",
    "city": "Surat",
    "lat": 21.1989,
    "lng": 72.8648
  },
  {
    "id": 147,
    "name": "Event Management Help - Mumbai",
    "description": "Volunteer at NGO events and fundraisers.",
    "category": "volunteering",
    "city": "Mumbai",
    "lat": 19.0336,
    "lng": 72.8409
  },
  {
    "id": 148,
    "name": "Helpline Support - Bangalore",
    "description": "Answer calls for crisis hotlines and counseling services.",
    "category": "volunteering",
    "city": "Bangalore",
    "lat": 13.0004,
    "lng": 77.57
  },
  {
    "id": 149,
    "name": "Festival Celebration with Needy - Kolkata",
    "description": "Share joy by celebrating festivals with underprivileged.",
    "category": "volunteering",
    "city": "Kolkata",
    "lat": 22.54,
    "lng": 88.3645
  },
  {
    "id": 150,
    "name": "Traffic Awareness Campaign - Pune",
    "description": "Educate citizens about road safety rules.",
    "category": "volunteering",
    "city": "Pune",
    "lat": 18.5061,
    "lng": 73.8683
  },
  {
    "id": 151,
    "name": "Community Kitchen Service - Pune",
    "description": "Prepare and serve meals to the homeless.",
    "category": "volunteering",
    "city": "Pune",
    "lat": 18.5388,
    "lng": 73.8263
  },
  {
    "id": 152,
    "name": "Old Age Home Visits - Jaipur",
    "description": "Spend time with elderly residents and provide companionship.",
    "category": "volunteering",
    "city": "Jaipur",
    "lat": 26.9296,
    "lng": 75.7714
  },
  {
    "id": 153,
    "name": "Disaster Relief Support - Jaipur",
    "description": "Assist in rescue and rehabilitation during emergencies.",
    "category": "volunteering",
    "city": "Jaipur",
    "lat": 26.9146,
    "lng": 75.7748
  },
  {
    "id": 154,
    "name": "Orphanage Support Program - Surat",
    "description": "Organize activities and donate supplies to orphanages.",
    "category": "volunteering",
    "city": "Surat",
    "lat": 21.1216,
    "lng": 72.7893
  },
  {
    "id": 155,
    "name": "Hospital Volunteer Program - Pune",
    "description": "Help patients and support hospital staff.",
    "category": "volunteering",
    "city": "Pune",
    "lat": 18.551,
    "lng": 73.8774
  },
  {
    "id": 156,
    "name": "Slum Beautification - Mumbai",
    "description": "Paint murals and improve living conditions in slums.",
    "category": "volunteering",
    "city": "Mumbai",
    "lat": 19.0625,
    "lng": 72.9222
  },
  {
    "id": 157,
    "name": "Event Management Help - Pune",
    "description": "Volunteer at NGO events and fundraisers.",
    "category": "volunteering",
    "city": "Pune",
    "lat": 18.5232,
    "lng": 73.8896
  },
  {
    "id": 158,
    "name": "Helpline Support - Kolkata",
    "description": "Answer calls for crisis hotlines and counseling services.",
    "category": "volunteering",
    "city": "Kolkata",
    "lat": 22.5958,
    "lng": 88.4054
  },
  {
    "id": 159,
    "name": "Festival Celebration with Needy - Lucknow",
    "description": "Share joy by celebrating festivals with underprivileged.",
    "category": "volunteering",
    "city": "Lucknow",
    "lat": 26.8554,
    "lng": 80.9075
  },
  {
    "id": 160,
    "name": "Traffic Awareness Campaign - Jaipur",
    "description": "Educate citizens about road safety rules.",
    "category": "volunteering",
    "city": "Jaipur",
    "lat": 26.9052,
    "lng": 75.7665
  },
  {
    "id": 161,
    "name": "Storytelling Sessions - Jaipur",
    "description": "Read stories and nurture imagination in young minds.",
    "category": "children",
    "city": "Jaipur",
    "lat": 26.9115,
    "lng": 75.7821
  },
  {
    "id": 162,
    "name": "Art & Craft Classes - Mumbai",
    "description": "Teach painting, drawing, and creative activities.",
    "category": "children",
    "city": "Mumbai",
    "lat": 19.0766,
    "lng": 72.8788
  },
  {
    "id": 163,
    "name": "Toy Donation Drive - Chennai",
    "description": "Collect and distribute toys to underprivileged children.",
    "category": "children",
    "city": "Chennai",
    "lat": 13.1323,
    "lng": 80.2765
  },
  {
    "id": 164,
    "name": "Child Rights Awareness - Pune",
    "description": "Educate about child labor and protection laws.",
    "category": "children",
    "city": "Pune",
    "lat": 18.4897,
    "lng": 73.8695
  },
  {
    "id": 165,
    "name": "Immunization Support - Mumbai",
    "description": "Help ensure all children receive necessary vaccinations.",
    "category": "children",
    "city": "Mumbai",
    "lat": 19.0787,
    "lng": 72.8946
  },
  {
    "id": 166,
    "name": "Music & Dance Classes - Chennai",
    "description": "Introduce children to performing arts.",
    "category": "children",
    "city": "Chennai",
    "lat": 13.0497,
    "lng": 80.2593
  },
  {
    "id": 167,
    "name": "Nutrition Supplementation - Surat",
    "description": "Provide healthy meals to malnourished kids.",
    "category": "children",
    "city": "Surat",
    "lat": 21.1849,
    "lng": 72.8384
  },
  {
    "id": 168,
    "name": "Child Safety Workshop - Mumbai",
    "description": "Teach kids about stranger danger and online safety.",
    "category": "children",
    "city": "Mumbai",
    "lat": 19.0305,
    "lng": 72.8494
  },
  {
    "id": 169,
    "name": "Science Experiment Lab - Bangalore",
    "description": "Make learning fun through hands-on experiments.",
    "category": "children",
    "city": "Bangalore",
    "lat": 12.9221,
    "lng": 77.6116
  },
  {
    "id": 170,
    "name": "Reading Buddies Program - Bangalore",
    "description": "Mentor young readers to improve literacy.",
    "category": "children",
    "city": "Bangalore",
    "lat": 12.9394,
    "lng": 77.6003
  },
  {
    "id": 171,
    "name": "Storytelling Sessions - Hyderabad",
    "description": "Read stories and nurture imagination in young minds.",
    "category": "children",
    "city": "Hyderabad",
    "lat": 17.3981,
    "lng": 78.451
  },
  {
    "id": 172,
    "name": "Art & Craft Classes - Bangalore",
    "description": "Teach painting, drawing, and creative activities.",
    "category": "children",
    "city": "Bangalore",
    "lat": 12.9585,
    "lng": 77.5837
  },
  {
    "id": 173,
    "name": "Toy Donation Drive - Jaipur",
    "description": "Collect and distribute toys to underprivileged children.",
    "category": "children",
    "city": "Jaipur",
    "lat": 26.8785,
    "lng": 75.7459
  },
  {
    "id": 174,
    "name": "Child Rights Awareness - Bangalore",
    "description": "Educate about child labor and protection laws.",
    "category": "children",
    "city": "Bangalore",
    "lat": 13.0149,
    "lng": 77.6216
  },
  {
    "id": 175,
    "name": "Immunization Support - Hyderabad",
    "description": "Help ensure all children receive necessary vaccinations.",
    "category": "children",
    "city": "Hyderabad",
    "lat": 17.4172,
    "lng": 78.4511
  },
  {
    "id": 176,
    "name": "Music & Dance Classes - Lucknow",
    "description": "Introduce children to performing arts.",
    "category": "children",
    "city": "Lucknow",
    "lat": 26.8448,
    "lng": 80.9606
  },
  {
    "id": 177,
    "name": "Nutrition Supplementation - Surat",
    "description": "Provide healthy meals to malnourished kids.",
    "category": "children",
    "city": "Surat",
    "lat": 21.1544,
    "lng": 72.8605
  },
  {
    "id": 178,
    "name": "Child Safety Workshop - Pune",
    "description": "Teach kids about stranger danger and online safety.",
    "category": "children",
    "city": "Pune",
    "lat": 18.4869,
    "lng": 73.8931
  },
  {
    "id": 179,
    "name": "Science Experiment Lab - Lucknow",
    "description": "Make learning fun through hands-on experiments.",
    "category": "children",
    "city": "Lucknow",
    "lat": 26.87,
    "lng": 80.9629
  },
  {
    "id": 180,
    "name": "Reading Buddies Program - Chennai",
    "description": "Mentor young readers to improve literacy.",
    "category": "children",
    "city": "Chennai",
    "lat": 13.0912,
    "lng": 80.2755
  },
  {
    "id": 181,
    "name": "Youth Leadership Summit - Pune",
    "description": "Develop future leaders through interactive sessions.",
    "category": "youth",
    "city": "Pune",
    "lat": 18.5635,
    "lng": 73.8946
  },
  {
    "id": 182,
    "name": "Internship Placement Drive - Jaipur",
    "description": "Connect students with job opportunities.",
    "category": "youth",
    "city": "Jaipur",
    "lat": 26.9507,
    "lng": 75.7451
  },
  {
    "id": 183,
    "name": "Mental Health Peer Support - Pune",
    "description": "Create safe spaces for youth to discuss challenges.",
    "category": "youth",
    "city": "Pune",
    "lat": 18.5109,
    "lng": 73.8653
  },
  {
    "id": 184,
    "name": "Music Band Formation - Jaipur",
    "description": "Help young musicians form bands and perform.",
    "category": "youth",
    "city": "Jaipur",
    "lat": 26.9246,
    "lng": 75.7952
  },
  {
    "id": 185,
    "name": "Public Speaking Club - Jaipur",
    "description": "Build confidence through debate and speech training.",
    "category": "youth",
    "city": "Jaipur",
    "lat": 26.8658,
    "lng": 75.7857
  },
  {
    "id": 186,
    "name": "Environmental Youth Group - Surat",
    "description": "Mobilize young people for climate action.",
    "category": "youth",
    "city": "Surat",
    "lat": 21.1394,
    "lng": 72.8068
  },
  {
    "id": 187,
    "name": "Creative Writing Workshop - Bangalore",
    "description": "Encourage storytelling and poetry among youth.",
    "category": "youth",
    "city": "Bangalore",
    "lat": 12.9419,
    "lng": 77.5941
  },
  {
    "id": 188,
    "name": "Startup Incubation - Mumbai",
    "description": "Mentor young entrepreneurs in launching startups.",
    "category": "youth",
    "city": "Mumbai",
    "lat": 19.1177,
    "lng": 72.8492
  },
  {
    "id": 189,
    "name": "Photography Club - Jaipur",
    "description": "Teach photography skills and organize exhibitions.",
    "category": "youth",
    "city": "Jaipur",
    "lat": 26.9016,
    "lng": 75.8109
  },
  {
    "id": 190,
    "name": "Social Media Activism - Kolkata",
    "description": "Use digital platforms for social change campaigns.",
    "category": "youth",
    "city": "Kolkata",
    "lat": 22.5961,
    "lng": 88.4102
  },
  {
    "id": 191,
    "name": "Youth Leadership Summit - Kolkata",
    "description": "Develop future leaders through interactive sessions.",
    "category": "youth",
    "city": "Kolkata",
    "lat": 22.5796,
    "lng": 88.3924
  },
  {
    "id": 192,
    "name": "Internship Placement Drive - Chennai",
    "description": "Connect students with job opportunities.",
    "category": "youth",
    "city": "Chennai",
    "lat": 13.0951,
    "lng": 80.2534
  },
  {
    "id": 193,
    "name": "Mental Health Peer Support - Surat",
    "description": "Create safe spaces for youth to discuss challenges.",
    "category": "youth",
    "city": "Surat",
    "lat": 21.1628,
    "lng": 72.8625
  },
  {
    "id": 194,
    "name": "Music Band Formation - Jaipur",
    "description": "Help young musicians form bands and perform.",
    "category": "youth",
    "city": "Jaipur",
    "lat": 26.9116,
    "lng": 75.7489
  },
  {
    "id": 195,
    "name": "Public Speaking Club - Kolkata",
    "description": "Build confidence through debate and speech training.",
    "category": "youth",
    "city": "Kolkata",
    "lat": 22.5613,
    "lng": 88.3377
  },
  {
    "id": 196,
    "name": "Environmental Youth Group - Delhi",
    "description": "Mobilize young people for climate action.",
    "category": "youth",
    "city": "Delhi",
    "lat": 28.6695,
    "lng": 77.1239
  },
  {
    "id": 197,
    "name": "Creative Writing Workshop - Delhi",
    "description": "Encourage storytelling and poetry among youth.",
    "category": "youth",
    "city": "Delhi",
    "lat": 28.6675,
    "lng": 77.1215
  },
  {
    "id": 198,
    "name": "Startup Incubation - Jaipur",
    "description": "Mentor young entrepreneurs in launching startups.",
    "category": "youth",
    "city": "Jaipur",
    "lat": 26.9175,
    "lng": 75.7378
  },
  {
    "id": 199,
    "name": "Photography Club - Mumbai",
    "description": "Teach photography skills and organize exhibitions.",
    "category": "youth",
    "city": "Mumbai",
    "lat": 19.0443,
    "lng": 72.8842
  },
  {
    "id": 200,
    "name": "Social Media Activism - Bangalore",
    "description": "Use digital platforms for social change campaigns.",
    "category": "youth",
    "city": "Bangalore",
    "lat": 12.9688,
    "lng": 77.6174
  }
]